[
    {
        "city": "Luanda", 
        "admin": "Luanda", 
        "country": "Angola", 
        "population_proper": "1951272", 
        "iso2": "AO", 
        "capital": "primary", 
        "lat": "-8.836804", 
        "lng": "13.233174", 
        "population": "5172900"
    }, 
    {
        "city": "Huambo", 
        "admin": "Huambo", 
        "country": "Angola", 
        "population_proper": "872000", 
        "iso2": "AO", 
        "capital": "admin", 
        "lat": "-12.776111", 
        "lng": "15.739167", 
        "population": "1100000"
    }, 
    {
        "city": "Lobito", 
        "admin": "Benguela", 
        "country": "Angola", 
        "population_proper": "133534", 
        "iso2": "AO", 
        "capital": "", 
        "lat": "-12.351905", 
        "lng": "13.546392", 
        "population": "207932"
    }, 
    {
        "city": "Benguela", 
        "admin": "Benguela", 
        "country": "Angola", 
        "population_proper": "132808", 
        "iso2": "AO", 
        "capital": "admin", 
        "lat": "-12.578333", 
        "lng": "13.407222", 
        "population": "151226"
    }, 
    {
        "city": "Namibe", 
        "admin": "Namibe", 
        "country": "Angola", 
        "population_proper": "123361", 
        "iso2": "AO", 
        "capital": "admin", 
        "lat": "-15.196111", 
        "lng": "12.152222", 
        "population": "132900"
    }, 
    {
        "city": "Malanje", 
        "admin": "Malanje", 
        "country": "Angola", 
        "population_proper": "87046", 
        "iso2": "AO", 
        "capital": "admin", 
        "lat": "-9.544722", 
        "lng": "16.345278", 
        "population": "125856"
    }, 
    {
        "city": "Lubango", 
        "admin": "Hu\u00edla", 
        "country": "Angola", 
        "population_proper": "102541", 
        "iso2": "AO", 
        "capital": "admin", 
        "lat": "-14.916667", 
        "lng": "13.5", 
        "population": "125632"
    }, 
    {
        "city": "Cuito", 
        "admin": "Bi\u00e9", 
        "country": "Angola", 
        "population_proper": "113624", 
        "iso2": "AO", 
        "capital": "admin", 
        "lat": "-12.383333", 
        "lng": "16.933333", 
        "population": "114286"
    }, 
    {
        "city": "Cabinda", 
        "admin": "Cabinda", 
        "country": "Angola", 
        "population_proper": "66020", 
        "iso2": "AO", 
        "capital": "admin", 
        "lat": "-5.55", 
        "lng": "12.2", 
        "population": "91791"
    }, 
    {
        "city": "Capenda Camulemba", 
        "admin": "Lunda Norte", 
        "country": "Angola", 
        "population_proper": "79685", 
        "iso2": "AO", 
        "capital": "", 
        "lat": "-9.418176", 
        "lng": "18.435335", 
        "population": "80000"
    }, 
    {
        "city": "Soio", 
        "admin": "Zaire", 
        "country": "Angola", 
        "population_proper": "63167", 
        "iso2": "AO", 
        "capital": "", 
        "lat": "-6.134903", 
        "lng": "12.368935", 
        "population": "67491"
    }, 
    {
        "city": "Mbanza Congo", 
        "admin": "Zaire", 
        "country": "Angola", 
        "population_proper": "24220", 
        "iso2": "AO", 
        "capital": "admin", 
        "lat": "-6.267028", 
        "lng": "14.240098", 
        "population": "60182"
    }, 
    {
        "city": "U\u00edge", 
        "admin": "U\u00edge", 
        "country": "Angola", 
        "population_proper": "53567", 
        "iso2": "AO", 
        "capital": "admin", 
        "lat": "-7.613282", 
        "lng": "15.056621", 
        "population": "60008"
    }, 
    {
        "city": "Saurimo", 
        "admin": "Lunda Sul", 
        "country": "Angola", 
        "population_proper": "40498", 
        "iso2": "AO", 
        "capital": "admin", 
        "lat": "-9.66078", 
        "lng": "20.391553", 
        "population": "41316"
    }, 
    {
        "city": "T\u00f4mbua", 
        "admin": "Namibe", 
        "country": "Angola", 
        "population_proper": "40000", 
        "iso2": "AO", 
        "capital": "", 
        "lat": "-15.8", 
        "lng": "11.85", 
        "population": "40000"
    }, 
    {
        "city": "Somba", 
        "admin": "Kwanza Sul", 
        "country": "Angola", 
        "population_proper": "26000", 
        "iso2": "AO", 
        "capital": "", 
        "lat": "-11.239011", 
        "lng": "13.855113", 
        "population": "33277"
    }, 
    {
        "city": "Lucapa", 
        "admin": "Lunda Norte", 
        "country": "Angola", 
        "population_proper": "20115", 
        "iso2": "AO", 
        "capital": "admin", 
        "lat": "-8.419151", 
        "lng": "20.744655", 
        "population": "31041"
    }, 
    {
        "city": "Mavinga", 
        "admin": "Kuando Kubango", 
        "country": "Angola", 
        "population_proper": "30000", 
        "iso2": "AO", 
        "capital": "", 
        "lat": "-15.8", 
        "lng": "20.35", 
        "population": "30000"
    }, 
    {
        "city": "Caxito", 
        "admin": "Bengo", 
        "country": "Angola", 
        "population_proper": "3107", 
        "iso2": "AO", 
        "capital": "admin", 
        "lat": "-8.58", 
        "lng": "13.664167", 
        "population": "28224"
    }, 
    {
        "city": "Luena", 
        "admin": "Moxico", 
        "country": "Angola", 
        "population_proper": "13438", 
        "iso2": "AO", 
        "capital": "admin", 
        "lat": "-11.783333", 
        "lng": "19.916667", 
        "population": "21115"
    }, 
    {
        "city": "Nzeto", 
        "admin": "Zaire", 
        "country": "Angola", 
        "population_proper": "18352", 
        "iso2": "AO", 
        "capital": "", 
        "lat": "-7.231164", 
        "lng": "12.866602", 
        "population": "21059"
    }, 
    {
        "city": "Camacupa", 
        "admin": "Bi\u00e9", 
        "country": "Angola", 
        "population_proper": "19150", 
        "iso2": "AO", 
        "capital": "", 
        "lat": "-12.016667", 
        "lng": "17.483333", 
        "population": "19828"
    }, 
    {
        "city": "Luanga", 
        "admin": "Moxico", 
        "country": "Angola", 
        "population_proper": "1463", 
        "iso2": "AO", 
        "capital": "", 
        "lat": "-10.712258", 
        "lng": "22.24536", 
        "population": "18465"
    }, 
    {
        "city": "Ambriz", 
        "admin": "Bengo", 
        "country": "Angola", 
        "population_proper": "17000", 
        "iso2": "AO", 
        "capital": "", 
        "lat": "-7.844312", 
        "lng": "13.106493", 
        "population": "17000"
    }, 
    {
        "city": "Menongue", 
        "admin": "Kuando Kubango", 
        "country": "Angola", 
        "population_proper": "13030", 
        "iso2": "AO", 
        "capital": "admin", 
        "lat": "-14.661639", 
        "lng": "17.688224", 
        "population": "13030"
    }, 
    {
        "city": "Camabatela", 
        "admin": "Kwanza Norte", 
        "country": "Angola", 
        "population_proper": "12625", 
        "iso2": "AO", 
        "capital": "", 
        "lat": "-8.18812", 
        "lng": "15.37495", 
        "population": "12837"
    }, 
    {
        "city": "Uacu Cungo", 
        "admin": "Kwanza Sul", 
        "country": "Angola", 
        "population_proper": "10970", 
        "iso2": "AO", 
        "capital": "", 
        "lat": "-11.36343", 
        "lng": "15.120778", 
        "population": "12069"
    }, 
    {
        "city": "Dundo", 
        "admin": "Lunda Norte", 
        "country": "Angola", 
        "population_proper": "11985", 
        "iso2": "AO", 
        "capital": "", 
        "lat": "-7.381086", 
        "lng": "20.833799", 
        "population": "11985"
    }, 
    {
        "city": "Songo", 
        "admin": "U\u00edge", 
        "country": "Angola", 
        "population_proper": "10579", 
        "iso2": "AO", 
        "capital": "", 
        "lat": "-7.352073", 
        "lng": "14.846292", 
        "population": "10579"
    }, 
    {
        "city": "Ondjiva", 
        "admin": "Cunene", 
        "country": "Angola", 
        "population_proper": "7327", 
        "iso2": "AO", 
        "capital": "admin", 
        "lat": "-17.066667", 
        "lng": "15.733333", 
        "population": "10169"
    }, 
    {
        "city": "Quibala", 
        "admin": "Kwanza Sul", 
        "country": "Angola", 
        "population_proper": "1582", 
        "iso2": "AO", 
        "capital": "", 
        "lat": "-10.73366", 
        "lng": "14.979949", 
        "population": "8915"
    }, 
    {
        "city": "N\u2019dalatando", 
        "admin": "Kwanza Norte", 
        "country": "Angola", 
        "population_proper": "8144", 
        "iso2": "AO", 
        "capital": "admin", 
        "lat": "-9.3", 
        "lng": "14.916667", 
        "population": "8144"
    }, 
    {
        "city": "Cubal", 
        "admin": "Benguela", 
        "country": "Angola", 
        "population_proper": "4837", 
        "iso2": "AO", 
        "capital": "", 
        "lat": "-13.033333", 
        "lng": "14.25", 
        "population": "4837"
    }, 
    {
        "city": "Dondo", 
        "admin": "Kwanza Norte", 
        "country": "Angola", 
        "population_proper": "2353", 
        "iso2": "AO", 
        "capital": "", 
        "lat": "-9.678842", 
        "lng": "14.42161", 
        "population": "2353"
    }, 
    {
        "city": "Muconda", 
        "admin": "Lunda Sul", 
        "country": "Angola", 
        "population_proper": "2324", 
        "iso2": "AO", 
        "capital": "", 
        "lat": "-10.592362", 
        "lng": "21.318045", 
        "population": "2324"
    }, 
    {
        "city": "Chibemba", 
        "admin": "Hu\u00edla", 
        "country": "Angola", 
        "population_proper": "1502", 
        "iso2": "AO", 
        "capital": "", 
        "lat": "-15.75", 
        "lng": "14.083333", 
        "population": "1502"
    }, 
    {
        "city": "Chibia", 
        "admin": "Hu\u00edla", 
        "country": "Angola", 
        "population_proper": "1411", 
        "iso2": "AO", 
        "capital": "", 
        "lat": "-15.183333", 
        "lng": "13.7", 
        "population": "1411"
    }, 
    {
        "city": "Bala Cangamba", 
        "admin": "Moxico", 
        "country": "Angola", 
        "population_proper": "1307", 
        "iso2": "AO", 
        "capital": "", 
        "lat": "-13.733333", 
        "lng": "19.866667", 
        "population": "1307"
    }, 
    {
        "city": "Cacolo", 
        "admin": "Lunda Sul", 
        "country": "Angola", 
        "population_proper": "984", 
        "iso2": "AO", 
        "capital": "", 
        "lat": "-10.145027", 
        "lng": "19.265982", 
        "population": "984"
    }, 
    {
        "city": "Cacuso", 
        "admin": "Kwanza Sul", 
        "country": "Angola", 
        "population_proper": "795", 
        "iso2": "AO", 
        "capital": "", 
        "lat": "-9.992183", 
        "lng": "14.905872", 
        "population": "795"
    }, 
    {
        "city": "Calenga", 
        "admin": "Bi\u00e9", 
        "country": "Angola", 
        "population_proper": "531", 
        "iso2": "AO", 
        "capital": "", 
        "lat": "-11.356379", 
        "lng": "16.239384", 
        "population": "531"
    }, 
    {
        "city": "Chitado", 
        "admin": "Cunene", 
        "country": "Angola", 
        "population_proper": "437", 
        "iso2": "AO", 
        "capital": "", 
        "lat": "-17.316667", 
        "lng": "13.916667", 
        "population": "500"
    }, 
    {
        "city": "Xangongo", 
        "admin": "Cunene", 
        "country": "Angola", 
        "population_proper": "447", 
        "iso2": "AO", 
        "capital": "", 
        "lat": "-16.75", 
        "lng": "14.983333", 
        "population": "447"
    }, 
    {
        "city": "Cazombo", 
        "admin": "Moxico", 
        "country": "Angola", 
        "population_proper": "298", 
        "iso2": "AO", 
        "capital": "", 
        "lat": "-11.9", 
        "lng": "22.916667", 
        "population": "298"
    }, 
    {
        "city": "Quipungo", 
        "admin": "Hu\u00edla", 
        "country": "Angola", 
        "population_proper": "186", 
        "iso2": "AO", 
        "capital": "", 
        "lat": "-14.85", 
        "lng": "14.5", 
        "population": "186"
    }, 
    {
        "city": "Luiana", 
        "admin": "Kuando Kubango", 
        "country": "Angola", 
        "population_proper": "150", 
        "iso2": "AO", 
        "capital": "", 
        "lat": "-17.383333", 
        "lng": "23.0", 
        "population": "150"
    }, 
    {
        "city": "Cuito Cuanavale", 
        "admin": "Kuando Kubango", 
        "country": "Angola", 
        "population_proper": "149", 
        "iso2": "AO", 
        "capital": "", 
        "lat": "-15.166667", 
        "lng": "19.183333", 
        "population": "149"
    }, 
    {
        "city": "Mucusso", 
        "admin": "Kuando Kubango", 
        "country": "Angola", 
        "population_proper": "100", 
        "iso2": "AO", 
        "capital": "", 
        "lat": "-18.016667", 
        "lng": "21.433333", 
        "population": "100"
    }, 
    {
        "city": "Sumbe", 
        "admin": "Kwanza Sul", 
        "country": "Angola", 
        "population_proper": "", 
        "iso2": "AO", 
        "capital": "admin", 
        "lat": "-11.206048", 
        "lng": "13.843713", 
        "population": ""
    }
]